{
  "latest_year": 2025,
  "city_count": 295,
  "records": 3245,
  "top_composite": [
    {
      "city_id": "los_angeles_us",
      "city_name": "Los Angeles",
      "country": "United States",
      "continent": "North America",
      "year": 2025,
      "score": 47.68094117992155,
      "latitude": 34.0522,
      "longitude": -118.2437
    },
    {
      "city_id": "paris_fr",
      "city_name": "Paris",
      "country": "France",
      "continent": "Europe",
      "year": 2025,
      "score": 44.018414953136826,
      "latitude": 48.8566,
      "longitude": 2.3522
    },
    {
      "city_id": "yokohama_jp",
      "city_name": "Yokohama",
      "country": "Japan",
      "continent": "Asia",
      "year": 2025,
      "score": 41.426825081309765,
      "latitude": 35.4437,
      "longitude": 139.638
    },
    {
      "city_id": "tokyo_jp",
      "city_name": "Tokyo",
      "country": "Japan",
      "continent": "Asia",
      "year": 2025,
      "score": 41.14832746789001,
      "latitude": 35.6762,
      "longitude": 139.6503
    },
    {
      "city_id": "melbourne_au",
      "city_name": "Melbourne",
      "country": "Australia",
      "continent": "Oceania",
      "year": 2025,
      "score": 40.259644171864565,
      "latitude": -37.8136,
      "longitude": 144.9631
    },
    {
      "city_id": "london_gb",
      "city_name": "London",
      "country": "United Kingdom",
      "continent": "Europe",
      "year": 2025,
      "score": 40.192445987501145,
      "latitude": 51.5072,
      "longitude": -0.1276
    },
    {
      "city_id": "lima_pe",
      "city_name": "Lima",
      "country": "Peru",
      "continent": "South America",
      "year": 2025,
      "score": 40.02207278274252,
      "latitude": -12.0464,
      "longitude": -77.0428
    },
    {
      "city_id": "barcelona_es",
      "city_name": "Barcelona",
      "country": "Spain",
      "continent": "Europe",
      "year": 2025,
      "score": 39.48010246112385,
      "latitude": 41.3874,
      "longitude": 2.1686
    },
    {
      "city_id": "osaka_jp",
      "city_name": "Osaka",
      "country": "Japan",
      "continent": "Asia",
      "year": 2025,
      "score": 38.6573449264461,
      "latitude": 34.6937,
      "longitude": 135.5023
    },
    {
      "city_id": "new_york_us",
      "city_name": "New York",
      "country": "United States",
      "continent": "North America",
      "year": 2025,
      "score": 38.44646193174958,
      "latitude": 40.7128,
      "longitude": -74.006
    },
    {
      "city_id": "guangzhou_cn",
      "city_name": "Guangzhou",
      "country": "China",
      "continent": "Asia",
      "year": 2025,
      "score": 38.436435411103105,
      "latitude": 23.1291,
      "longitude": 113.2644
    },
    {
      "city_id": "phoenix_us",
      "city_name": "Phoenix",
      "country": "United States",
      "continent": "North America",
      "year": 2025,
      "score": 38.423619221301564,
      "latitude": 33.4484,
      "longitude": -112.074
    },
    {
      "city_id": "shenzhen_cn",
      "city_name": "Shenzhen",
      "country": "China",
      "continent": "Asia",
      "year": 2025,
      "score": 38.2408067622782,
      "latitude": 22.5431,
      "longitude": 114.0579
    },
    {
      "city_id": "sao_paulo_br",
      "city_name": "Sao Paulo",
      "country": "Brazil",
      "continent": "South America",
      "year": 2025,
      "score": 38.23247150767776,
      "latitude": -23.5505,
      "longitude": -46.6333
    },
    {
      "city_id": "shanghai_cn",
      "city_name": "Shanghai",
      "country": "China",
      "continent": "Asia",
      "year": 2025,
      "score": 37.961003272122,
      "latitude": 31.2304,
      "longitude": 121.4737
    },
    {
      "city_id": "tehran_ir",
      "city_name": "Tehran",
      "country": "Iran",
      "continent": "Asia",
      "year": 2025,
      "score": 37.960242590715175,
      "latitude": 35.6892,
      "longitude": 51.389
    },
    {
      "city_id": "buenos_aires_ar",
      "city_name": "Buenos Aires",
      "country": "Argentina",
      "continent": "South America",
      "year": 2025,
      "score": 37.744923378040944,
      "latitude": -34.6037,
      "longitude": -58.3816
    },
    {
      "city_id": "valencia_es",
      "city_name": "Valencia",
      "country": "Spain",
      "continent": "Europe",
      "year": 2025,
      "score": 37.714878092426595,
      "latitude": 39.4699,
      "longitude": -0.3763
    },
    {
      "city_id": "seoul_kr",
      "city_name": "Seoul",
      "country": "South Korea",
      "continent": "Asia",
      "year": 2025,
      "score": 37.62537796847633,
      "latitude": 37.5665,
      "longitude": 126.978
    },
    {
      "city_id": "washington_dc_us",
      "city_name": "Washington",
      "country": "United States",
      "continent": "North America",
      "year": 2025,
      "score": 37.546580726267706,
      "latitude": 38.9072,
      "longitude": -77.0369
    }
  ],
  "top_economic": [
    {
      "city_id": "los_angeles_us",
      "city_name": "Los Angeles",
      "country": "United States",
      "continent": "North America",
      "year": 2025,
      "score": 46.24601551122464,
      "latitude": 34.0522,
      "longitude": -118.2437
    },
    {
      "city_id": "guangzhou_cn",
      "city_name": "Guangzhou",
      "country": "China",
      "continent": "Asia",
      "year": 2025,
      "score": 44.786783979630194,
      "latitude": 23.1291,
      "longitude": 113.2644
    },
    {
      "city_id": "shenzhen_cn",
      "city_name": "Shenzhen",
      "country": "China",
      "continent": "Asia",
      "year": 2025,
      "score": 44.212243715027725,
      "latitude": 22.5431,
      "longitude": 114.0579
    },
    {
      "city_id": "paris_fr",
      "city_name": "Paris",
      "country": "France",
      "continent": "Europe",
      "year": 2025,
      "score": 43.95096804767332,
      "latitude": 48.8566,
      "longitude": 2.3522
    },
    {
      "city_id": "tokyo_jp",
      "city_name": "Tokyo",
      "country": "Japan",
      "continent": "Asia",
      "year": 2025,
      "score": 41.40387602601583,
      "latitude": 35.6762,
      "longitude": 139.6503
    },
    {
      "city_id": "london_gb",
      "city_name": "London",
      "country": "United Kingdom",
      "continent": "Europe",
      "year": 2025,
      "score": 40.83232680954106,
      "latitude": 51.5072,
      "longitude": -0.1276
    },
    {
      "city_id": "buenos_aires_ar",
      "city_name": "Buenos Aires",
      "country": "Argentina",
      "continent": "South America",
      "year": 2025,
      "score": 40.70307980538241,
      "latitude": -34.6037,
      "longitude": -58.3816
    },
    {
      "city_id": "sao_paulo_br",
      "city_name": "Sao Paulo",
      "country": "Brazil",
      "continent": "South America",
      "year": 2025,
      "score": 40.061542339075075,
      "latitude": -23.5505,
      "longitude": -46.6333
    },
    {
      "city_id": "shanghai_cn",
      "city_name": "Shanghai",
      "country": "China",
      "continent": "Asia",
      "year": 2025,
      "score": 39.90588239045189,
      "latitude": 31.2304,
      "longitude": 121.4737
    },
    {
      "city_id": "new_york_us",
      "city_name": "New York",
      "country": "United States",
      "continent": "North America",
      "year": 2025,
      "score": 39.12677083180439,
      "latitude": 40.7128,
      "longitude": -74.006
    },
    {
      "city_id": "melbourne_au",
      "city_name": "Melbourne",
      "country": "Australia",
      "continent": "Oceania",
      "year": 2025,
      "score": 39.07555888449002,
      "latitude": -37.8136,
      "longitude": 144.9631
    },
    {
      "city_id": "moscow_ru",
      "city_name": "Moscow",
      "country": "Russia",
      "continent": "Europe",
      "year": 2025,
      "score": 39.034710169267086,
      "latitude": 55.7558,
      "longitude": 37.6173
    },
    {
      "city_id": "yokohama_jp",
      "city_name": "Yokohama",
      "country": "Japan",
      "continent": "Asia",
      "year": 2025,
      "score": 38.923135833959876,
      "latitude": 35.4437,
      "longitude": 139.638
    },
    {
      "city_id": "saint_petersburg_ru",
      "city_name": "Saint Petersburg",
      "country": "Russia",
      "continent": "Europe",
      "year": 2025,
      "score": 38.9157754981881,
      "latitude": 59.9343,
      "longitude": 30.3351
    },
    {
      "city_id": "hong_kong_hk",
      "city_name": "Hong Kong",
      "country": "Hong Kong",
      "continent": "Asia",
      "year": 2025,
      "score": 38.872227484249834,
      "latitude": 22.3193,
      "longitude": 114.1694
    },
    {
      "city_id": "chicago_us",
      "city_name": "Chicago",
      "country": "United States",
      "continent": "North America",
      "year": 2025,
      "score": 38.79705667051508,
      "latitude": 41.8781,
      "longitude": -87.6298
    },
    {
      "city_id": "manchester_gb",
      "city_name": "Manchester",
      "country": "United Kingdom",
      "continent": "Europe",
      "year": 2025,
      "score": 38.042030530147855,
      "latitude": 53.4808,
      "longitude": -2.2426
    },
    {
      "city_id": "doha_qa",
      "city_name": "Doha",
      "country": "Qatar",
      "continent": "Asia",
      "year": 2025,
      "score": 37.72870893599096,
      "latitude": 25.2854,
      "longitude": 51.531
    },
    {
      "city_id": "jakarta_id",
      "city_name": "Jakarta",
      "country": "Indonesia",
      "continent": "Asia",
      "year": 2025,
      "score": 37.707354536235,
      "latitude": -6.2088,
      "longitude": 106.8456
    },
    {
      "city_id": "phoenix_us",
      "city_name": "Phoenix",
      "country": "United States",
      "continent": "North America",
      "year": 2025,
      "score": 37.646979973879475,
      "latitude": 33.4484,
      "longitude": -112.074
    }
  ]
}